sample = '{"duration": {"total": 1000, "average": 7, "max": 500 }, "slaves": {"embarked": 50000, "disembarked": 30000, "total": 50000, "casualties": 20000 }, "title": {"name": "Slave Traffic"}, "routes": [{"partida":{"nome": "Amazonia", "latitude": 39.8861, "longitude": -94.891 }, "chegada": {"nome": "Americas", "latitude": 14.37, "longitude": -84.804 }, "length":{"total": 300, "average": 14 }, "slaves": {"embarked": 20000, "disembarked": 15000, "total": 20000, "casualties": 5000 } }, {"partida":{"nome": "British Americas", "latitude": 18.349625, "longitude": -64.69134 }, "chegada": {"nome": "Connecticut", "latitude": 41.628232, "longitude": -72.6995 }, "length":{"total": 200, "average": 2 }, "slaves": {"embarked": 10000, "disembarked": 4, "total": 10000, "casualties": 9996 } }, {"partida":{"nome": "Honduras", "latitude": 14.7903, "longitude": -77.3174 }, "chegada": {"nome": "Portugal", "latitude": 39.6429, "longitude": -8.627603 }, "length":{"total": 500, "average": 7 }, "slaves": {"embarked": 20000, "disembarked": 14996, "total": 20000, "casualties": 5004 } } ] }'